time,.header.seq,.header.stamp.secs,.header.stamp.nsecs,.header.frame_id,.pose.position.x,.pose.position.y,.pose.position.z,.pose.orientation.x,.pose.orientation.y,.pose.orientation.z,.pose.orientation.w
2020/10/23/20:07:56.010401,310,1603480075,977548908,map,-0.00275841347557,0.0053086671234,-0.00188345629747,-0.00093763985903,-0.00135382521973,-0.00258662367301,0.999995298672
2020/10/23/20:07:56.044016,311,1603480076,10704908,map,-0.00275526668639,0.00530380606644,-0.00188668518436,-0.000921610626382,-0.00134831061585,-0.00257507595231,0.999995350827
2020/10/23/20:07:56.077355,312,1603480076,44255908,map,-0.00275616294271,0.00530780106783,-0.00188586977047,-0.000945552615559,-0.00135382522982,-0.00258085624433,0.999995306123
2020/10/23/20:07:56.110357,313,1603480076,77486908,map,-0.00275910195579,0.00531011998661,-0.0018903615887,-0.00093763985903,-0.00135382521973,-0.00258662367301,0.999995298672
2020/10/23/20:07:56.144070,314,1603480076,110554908,map,-0.00276201424926,0.0053094777464,-0.00189427305475,-0.000921610605783,-0.00135931742132,-0.00257796765128,0.999995328476
2020/10/23/20:07:56.177222,315,1603480076,144229908,map,-0.00276095245236,0.00530765950668,-0.00189141250698,-0.000937639817115,-0.00134831056562,-0.00258374134695,0.999995313574
2020/10/23/20:07:56.210562,316,1603480076,177509908,map,-0.00275850000554,0.00530347824089,-0.00189575649907,-0.000921610626382,-0.00134831061585,-0.00257507595231,0.999995350827
2020/10/23/20:07:56.244044,317,1603480076,210525908,map,-0.00276175410681,0.00530342042444,-0.00189042310784,-0.000913490606283,-0.00133721333526,-0.0025808562251,0.999995358278
2020/10/23/20:07:56.277565,318,1603480076,244123908,map,-0.00276499772049,0.00530769675972,-0.00188851317746,-0.000929659786857,-0.00134277339747,-0.00258662357665,0.999995321024
2020/10/23/20:07:56.310511,319,1603480076,277556908,map,-0.00276402215921,0.00530930995934,-0.001889720286,-0.000921610612649,-0.00134277341748,-0.0025837414047,0.999995335926
2020/10/23/20:07:56.344226,320,1603480076,310504908,map,-0.00276108156769,0.00531407833105,-0.00188802494962,-0.000913490592671,-0.00133721331534,-0.00258662363447,0.999995343376
2020/10/23/20:07:56.377461,321,1603480076,344182908,map,-0.00276189827896,0.00531471520664,-0.00188797510584,-0.000929659786857,-0.00134277339747,-0.00258662357665,0.999995321024
2020/10/23/20:07:56.410727,322,1603480076,377461908,map,-0.00276162835666,0.00531848341217,-0.00188438311418,-0.000937639824101,-0.00134831057567,-0.00258085612895,0.999995321025
2020/10/23/20:07:56.443902,323,1603480076,410857908,map,-0.00276526501746,0.00532062143084,-0.00188568751476,-0.000921610626382,-0.00134831061585,-0.00259811966677,0.999995291222
2020/10/23/20:07:56.477179,324,1603480076,443884908,map,-0.00276395480351,0.00532152503717,-0.00188544482475,-0.000937639817115,-0.00134831056562,-0.00258374134695,0.999995313574
2020/10/23/20:07:56.510593,325,1603480076,477434908,map,-0.00275572057953,0.00531691521401,-0.001886455301,-0.000921610619516,-0.00134277342748,-0.00258085618664,0.999995343377
2020/10/23/20:07:56.544169,326,1603480076,510891908,map,-0.00275293749029,0.00531499832857,-0.00188565274252,-0.000937639817115,-0.00134831056562,-0.00258374134695,0.999995313574
2020/10/23/20:07:56.577571,327,1603480076,544074908,map,-0.00275124678154,0.00531004756682,-0.00188878008678,-0.000929659793784,-0.00134831058572,-0.00258085614818,0.999995328475
2020/10/23/20:07:56.610825,328,1603480076,577500908,map,-0.00275458155698,0.00531442463398,-0.0018875529032,-0.000945552615559,-0.00135382522982,-0.00258085624433,0.999995306123
2020/10/23/20:07:56.643714,329,1603480076,610976908,map,-0.00274716153681,0.00531987875711,-0.00189670993869,-0.000897029958682,-0.00137023584253,-0.00258662371156,0.999995313573
2020/10/23/20:07:56.677333,330,1603480076,644050908,map,-0.00275062069347,0.00531739562761,-0.00189606803223,-0.000921610653848,-0.00134831065603,-0.00258662373083,0.999995321024
2020/10/23/20:07:56.710707,331,1603480076,677601908,map,-0.00274847489386,0.00531540066005,-0.00189522428793,-0.000929659786857,-0.00134277339747,-0.00258662357665,0.999995321024
2020/10/23/20:07:56.743818,332,1603480076,710780908,map,-0.0027471617679,0.00531158238642,-0.00189512867994,-0.000929659793784,-0.00134831058572,-0.00258085614818,0.999995328475
2020/10/23/20:07:56.777388,333,1603480076,744060908,map,-0.00274450665102,0.0053035154938,-0.00190112999749,-0.000921610626382,-0.00134831061585,-0.00257507595231,0.999995350827
2020/10/23/20:07:56.810853,334,1603480076,777460908,map,-0.00275733905047,0.00531612336644,-0.00190243222885,-0.000913490619895,-0.00134831064599,-0.00259237812104,0.999995313574
2020/10/23/20:07:56.844263,335,1603480076,810905908,map,-0.00275623180741,0.00531183779237,-0.00190255390961,-0.000913490606283,-0.00134277344749,-0.00257796772811,0.999995358278
2020/10/23/20:07:56.878397,336,1603480076,843970908,map,-0.00275635007318,0.00530913084743,-0.00189669982003,-0.000945552552154,-0.00134831054553,-0.00258662351884,0.999995298673
2020/10/23/20:07:56.910695,337,1603480076,877596908,map,-0.00275808870001,0.00530690908427,-0.00190001559051,-0.000921610619516,-0.00134277342748,-0.00258085618664,0.999995343377
2020/10/23/20:07:56.944063,338,1603480076,910748908,map,-0.00276584331994,0.00531784802676,-0.00189859298712,-0.000913490613089,-0.00134277345749,-0.00259811970549,0.999995306123
2020/10/23/20:07:56.977535,339,1603480076,944061908,map,-0.00276544978039,0.0053207260371,-0.00190278603775,-0.000913490633507,-0.00134277348751,-0.00258950246829,0.999995328475
2020/10/23/20:07:57.011083,340,1603480076,977617908,map,-0.0027648242577,0.00532011151308,-0.00190001442636,-0.000921610619516,-0.00134277342748,-0.00258085618664,0.999995343377
2020/10/23/20:07:57.043769,341,1603480077,10918908,map,-0.00276622503491,0.00532560229309,-0.00189469447291,-0.000921610646981,-0.0013427734675,-0.00259237812104,0.999995313573
2020/10/23/20:07:57.077277,342,1603480077,43936908,map,-0.00276724948975,0.00532894760378,-0.00189465652152,-0.000921610646981,-0.0013427734675,-0.00259237812104,0.999995313573
2020/10/23/20:07:57.110700,343,1603480077,77391908,map,-0.00276488856179,0.00532432287924,-0.00189527885571,-0.000929659793784,-0.00134831058572,-0.00258085614818,0.999995328475
2020/10/23/20:07:57.149322,344,1603480077,110855908,map,-0.00277192900789,0.00532987475388,-0.00189459539221,-0.000921610612649,-0.00133721330537,-0.00260956511667,0.999995276321
2020/10/23/20:07:57.178343,345,1603480077,143923908,map,-0.00276850414602,0.00532379955048,-0.00189381763878,-0.000921610619516,-0.00134277342748,-0.00258085618664,0.999995343377
2020/10/23/20:07:57.214731,346,1603480077,177612908,map,-0.00276160776447,0.00532173603779,-0.00189318828879,-0.000921610646982,-0.0013427734675,-0.00256928295049,0.999995373178
2020/10/23/20:07:57.243893,347,1603480077,210901908,map,-0.00276665830104,0.00532156050217,-0.00189944873318,-0.000921610653848,-0.00134831065603,-0.00258662373083,0.999995321024
2020/10/23/20:07:57.277363,348,1603480077,244047908,map,-0.00276363845519,0.00531770288946,-0.0018978818169,-0.000929659786857,-0.00134277339747,-0.00258662357665,0.999995321024
2020/10/23/20:07:57.310365,349,1603480077,277494908,map,-0.00276120728765,0.00531416445965,-0.00189405732963,-0.000929659786858,-0.00134277339747,-0.00256347648608,0.99999538063
2020/10/23/20:07:57.348176,350,1603480077,310877908,map,-0.00276690145413,0.00531424790614,-0.00189524136663,-0.000929659800711,-0.00134831059576,-0.00257796767049,0.999995335926
2020/10/23/20:07:57.377454,351,1603480077,344132908,map,-0.00276934799234,0.00531859874733,-0.00189573732137,-0.000921610646981,-0.0013427734675,-0.00259237812104,0.999995313573
2020/10/23/20:07:57.410911,352,1603480077,377437908,map,-0.00276586113928,0.00532005339858,-0.00188801295605,-0.000921610598916,-0.00133162989036,-0.00259525041741,0.999995321025
2020/10/23/20:07:57.444267,353,1603480077,410979908,map,-0.00276559993083,0.00531789124005,-0.00188953398906,-0.000929659800711,-0.00134831059576,-0.00257796767049,0.999995335926
2020/10/23/20:07:57.477180,354,1603480077,444245908,map,-0.00276777585573,0.00531544536354,-0.00188902796601,-0.000929659786857,-0.00134277339747,-0.00258662357665,0.999995321024
2020/10/23/20:07:57.511139,355,1603480077,477266908,map,-0.00275068294043,0.00526401460173,-0.00184392757617,-0.000991703964572,-0.00142357222191,-0.002682771128,0.999994896339
2020/10/23/20:07:57.544002,356,1603480077,510993908,map,-0.00271924826565,0.0051960417629,-0.00181868625096,-0.000999188546048,-0.001519763189,-0.00298511222514,0.999993890505
2020/10/23/20:07:57.577398,357,1603480077,544212908,map,-0.00272817696371,0.00515446782122,-0.00172885141273,-0.00094555262259,-0.00155848943383,-0.00328910986786,0.999992929374
2020/10/23/20:07:57.611095,358,1603480077,577396908,map,-0.00257362564318,0.00512328177696,-0.00173947408102,-0.000863167457257,-0.00168704532548,-0.00341578829092,0.999992370576
2020/10/23/20:07:57.643872,359,1603480077,610782908,map,-0.00235491154038,0.00506684184065,-0.00171184328716,-0.000863167437964,-0.00150992636449,-0.00352104605677,0.99999228862
2020/10/23/20:07:57.678370,360,1603480077,644225908,map,-0.0019669940951,0.004966195822,-0.00170279620127,-0.000836871951017,-0.00158221211833,-0.00362735816648,0.999991819228
2020/10/23/20:07:57.711013,361,1603480077,677380908,map,-0.00137702066282,0.00478362083424,-0.00170305560455,-0.000781631382385,-0.0016240398278,-0.00370056295791,0.999991528655
2020/10/23/20:07:57.744418,362,1603480077,710904908,map,-0.00087699771355,0.0046314483881,-0.00168966800863,-0.00070124054444,-0.00169585491325,-0.00381359848084,0.999991044362
2020/10/23/20:07:57.777849,363,1603480077,744262908,map,-0.000393799876546,0.00446230351931,-0.00168067050672,-0.000722177744863,-0.00170898440039,-0.00390434224371,0.999990656928
2020/10/23/20:07:57.811090,364,1603480077,777414908,map,0.000150797186484,0.00432448327525,-0.00168991255537,-0.000622438897852,-0.00185128787559,-0.00400048069263,0.99999009068
2020/10/23/20:07:57.844920,365,1603480077,810904908,map,0.000642700008837,0.00424247562858,-0.00167335362768,-0.00065736873256,-0.00193780611164,-0.00424446718005,0.999988898574
2020/10/23/20:07:57.877359,366,1603480077,844377908,map,0.000977790720742,0.00416503280383,-0.00169005217443,-0.000634295895702,-0.00192623693254,-0.00441145271801,0.999988213113
2020/10/23/20:07:57.910830,367,1603480077,877267908,map,0.00137847620839,0.00409401655198,-0.00157057602069,-0.000657368761935,-0.00197588076169,-0.00455601992589,0.999987453143
2020/10/23/20:07:57.945330,368,1603480077,910992908,map,0.00189330257394,0.0040556016562,-0.00158850072492,-0.000622438893183,-0.00216309139305,-0.0048321959409,0.999985791643
2020/10/23/20:07:57.977632,369,1603480077,944248908,map,0.00258986211127,0.00397673100246,-0.00154934653888,-0.000598019965063,-0.00220403675627,-0.00496302533922,0.999985076375
2020/10/23/20:07:58.010941,370,1603480077,977426908,map,0.00325775490309,0.0039295148846,-0.00152150182847,-0.000532092157416,-0.002296739172,-0.00522483726056,0.999983571336
2020/10/23/20:07:58.044652,371,1603480078,10785908,map,0.00408240422358,0.00388734072469,-0.00151272224762,-0.000422863962187,-0.00235756930753,-0.00541254881993,0.999982483531
2020/10/23/20:07:58.077355,372,1603480078,44338908,map,0.00503950821523,0.00385286480183,-0.00153005752657,-0.000488281257203,-0.0022673553656,-0.00541117189984,0.9999826698
2020/10/23/20:07:58.110687,373,1603480078,77299908,map,0.00615715820995,0.00351307362288,-0.00138867767636,-0.00051790043172,-0.00207160172688,-0.00540841723125,0.999983094491
2020/10/23/20:07:58.144135,374,1603480078,110926908,map,0.00684820221198,0.00343596696873,-0.00136926965365,-0.000422863974773,-0.00250467341362,-0.00572820727522,0.999980367527
2020/10/23/20:07:58.177151,375,1603480078,144353908,map,0.00783972911463,0.0033310729265,-0.00134020089824,-0.000472776307687,-0.0024867614631,-0.00583899448825,0.999979749117
2020/10/23/20:07:58.211185,376,1603480078,177458908,map,0.00880272654576,0.0032537090782,-0.00130350710981,-0.000322967687548,-0.00262947502775,-0.00598767040504,0.999978564448
2020/10/23/20:07:58.244041,377,1603480078,210907908,map,0.00978439687117,0.00319420695355,-0.00126944070549,-0.000366210948321,-0.00258950244836,-0.00616787392245,0.999977558597
2020/10/23/20:07:58.277660,378,1603480078,244321908,map,0.0107020457418,0.00316674470916,-0.00124578625625,-0.000366210940132,-0.00258950239046,-0.00624828324487,0.999977059399
2020/10/23/20:07:58.310615,379,1603480078,277592908,map,0.0117136689939,0.00303573370043,-0.0011832008046,-0.000422863974742,-0.00255182441449,-0.00627446197828,0.999976969987
2020/10/23/20:07:58.344283,380,1603480078,310714908,map,0.0127507483565,0.00296233296426,-0.00109775147094,-0.000366210948291,-0.00267163928089,-0.00667268104024,0.999974101445
2020/10/23/20:07:58.377905,381,1603480078,344227908,map,0.0135140120348,0.00291581332684,-0.00102114082289,-0.000172633493623,-0.00283928316986,-0.00692796075602,0.999971955621
2020/10/23/20:07:58.411467,382,1603480078,377382908,map,0.0144183749196,0.00289509624219,-0.000960168818135,-0.000244140624905,-0.0028471443791,-0.0069096540074,0.999972045032
2020/10/23/20:07:58.444227,383,1603480078,410737908,map,0.0154315921452,0.00288107156803,-0.000894021098091,-0.000345266989811,-0.00263230698567,-0.00710319195033,0.999971247794
2020/10/23/20:07:58.477989,384,1603480078,444325908,map,0.0163564347923,0.00287903666481,-0.000836090709432,-0.000299009993564,-0.00287319397975,-0.00727317818693,0.999969377645
2020/10/23/20:07:58.515221,385,1603480078,477662908,map,0.0172205782548,0.00284988910046,-0.000695463735819,-0.000172633498749,-0.00285498442238,-0.00741621150695,0.999968409035
2020/10/23/20:07:58.544829,386,1603480078,510732908,map,0.018468670817,0.00284029394401,-0.000620677046365,-0.000299009989084,-0.00280761718595,-0.00764378532346,0.999966799661
2020/10/23/20:07:58.577477,387,1603480078,544228908,map,0.0192734783786,0.00275526821719,-0.00049716405828,-0.000345266987163,-0.00302970557929,-0.00785435014031,0.999964504799
2020/10/23/20:07:58.610947,388,1603480078,577624908,map,0.0199044925596,0.00281745284742,-0.000451743760433,-0.000211431979396,-0.00318788201314,-0.00815864465532,0.999961613874
2020/10/23/20:07:58.644297,389,1603480078,610666908,map,0.0214134275038,0.0027523112298,-0.000337711848539,-0.000244140628465,-0.00284452647282,-0.00819509208657,0.999962344056
2020/10/23/20:07:58.681794,390,1603480078,644253908,map,0.0226852097074,0.00273010611594,-0.000215589720211,-0.000244140632079,-0.00301985288414,-0.00842550514483,0.99995991507
2020/10/23/20:07:58.711196,391,1603480078,677579908,map,0.0235847435848,0.00274456649992,-0.000149296844082,-0.000272957530734,-0.0031502657786,-0.00846080233426,0.99995920724
2020/10/23/20:07:58.744363,392,1603480078,710870908,map,0.0248348566706,0.00254535824116,1.6591082367e-05,-0.000272957530723,-0.00337850407881,-0.0084854237097,0.999958253523
2020/10/23/20:07:58.777416,393,1603480078,744130908,map,0.0258384790583,0.00250324264263,4.7755395829e-05,-0.000299009993409,-0.00370659824031,-0.0086506438714,0.999955668059
2020/10/23/20:07:58.811012,394,1603480078,777522908,map,0.0269575408123,0.00246767014238,0.000104025632061,0.0,-0.00336745968124,-0.00875934225604,0.9999559661
2020/10/23/20:07:58.843722,395,1603480078,810769908,map,0.0283618648024,0.00235823109731,0.000361207447308,-0.000122070314193,-0.00344186327536,-0.00889858243288,0.999954475917
2020/10/23/20:07:58.877553,396,1603480078,844143908,map,0.0296803514466,0.0022289179275,0.000434933235198,-0.000211431988755,-0.00383697117618,-0.00905215407081,0.999951644559
2020/10/23/20:07:58.910340,397,1603480078,877729908,map,0.0312533236984,0.00206265971012,0.000494959920391,-0.000172633485771,-0.0036088246272,-0.00915934130727,0.99995152535
2020/10/23/20:07:58.944093,398,1603480078,910612908,map,0.0326551744681,0.00198698639894,0.000590901193436,-0.000172633484462,-0.00401535248197,-0.00927654073046,0.999948895161
2020/10/23/20:07:58.977486,399,1603480078,944313908,map,0.0347089939091,0.00195573031827,0.000543043833434,0.0,-0.00393854115958,-0.00924758118711,0.999949483792
2020/10/23/20:07:59.011259,400,1603480078,977635908,map,0.0366091943956,0.00180719494702,0.000571751601914,0.0,-0.00363146336732,-0.00935412255409,0.999949655165
2020/10/23/20:07:59.044487,401,1603480079,10762908,map,0.0382195314487,0.00167501196314,0.000696391412983,0.0,-0.00361913250474,-0.00947677701234,0.999948544965
2020/10/23/20:07:59.077392,402,1603480079,44220908,map,0.0395012280708,0.00161255299903,0.000754624958347,0.0,-0.00397806881588,-0.00965976498602,0.999945430466
2020/10/23/20:07:59.110577,403,1603480079,77572908,map,0.0410965146469,0.001512125284,0.000771201806272,0.000122070310484,-0.00404124653742,-0.00986355340579,0.999943180255
2020/10/23/20:07:59.143957,404,1603480079,110879908,map,0.0429035967715,0.00145084768713,0.000830457865875,0.0,-0.00396681591087,-0.00996126735649,0.99994251711
2020/10/23/20:07:59.178218,405,1603480079,144199908,map,0.0448759142777,0.00137462541467,0.000884123766867,0.0,-0.00384473046002,-0.0100268706523,0.999942338294
2020/10/23/20:07:59.211564,406,1603480079,177585908,map,0.04667895899,0.00128701314232,0.000960387464237,0.0,-0.00407977910674,-0.0101281580512,0.999940386132
2020/10/23/20:07:59.244167,407,1603480079,210783908,map,0.0482353427222,0.00123344063626,0.00100177240093,0.0,-0.00378221037094,-0.0102836535293,0.999939968876
2020/10/23/20:07:59.311166,408,1603480079,277526908,map,0.0509182886756,0.00118211507796,0.00103171953865,0.0,-0.00428117149324,-0.0104132487696,0.999936615902
2020/10/23/20:07:59.344695,409,1603480079,310871908,map,0.0523918581086,0.00109679698972,0.00105405566092,0.0,-0.0043330661824,-0.0105341800706,0.99993512569
2020/10/23/20:07:59.378216,410,1603480079,344119908,map,0.0540749124487,0.00104991391218,0.00114619707467,0.0,-0.00418079683865,-0.0107123216647,0.999933881365
2020/10/23/20:07:59.411120,411,1603480079,377623908,map,0.0558181576252,0.00103418991084,0.00115957756526,0.000122070315863,-0.00415577285264,-0.0108113235978,0.999932912716
2020/10/23/20:07:59.444191,412,1603480079,411063908,map,0.0577274539067,0.000952787996609,0.00127139023519,0.0,-0.0040578051053,-0.0108175241828,0.999933255467
2020/10/23/20:07:59.478015,413,1603480079,444212908,map,0.05945559818,0.000927923620312,0.00131152416308,0.0,-0.00408525400585,-0.0109707193781,0.99993147466
2020/10/23/20:07:59.510742,414,1603480079,477756908,map,0.060914323584,0.000854879765202,0.00135583092465,0.0,-0.00409800040013,-0.0108875490717,0.999932331544
2020/10/23/20:07:59.544655,415,1603480079,510937908,map,0.0625894868559,0.000700812935623,0.00139399326736,0.0,-0.00419502940283,-0.0110066542957,0.999930625238
2020/10/23/20:07:59.578003,416,1603480079,544056908,map,0.0643787266362,0.000650217385832,0.00140125553948,0.000211431983741,-0.00396305749597,-0.011243730075,0.999928911476
2020/10/23/20:07:59.610745,417,1603480079,577516908,map,0.0662682846705,0.000577901750857,0.00154914481089,0.000211431988495,-0.00369250091512,-0.0111799347287,0.999930662493
2020/10/23/20:07:59.644245,418,1603480079,610916908,map,0.0681965741477,0.000337927789425,0.00171194528877,0.000122070313112,-0.0037624596341,-0.0111985793898,0.999930207973
2020/10/23/20:07:59.678295,419,1603480079,644147908,map,0.0696214158086,0.000236560406359,0.0017386329142,0.000272957534307,-0.00399861830527,-0.0113643469328,0.999927391446
2020/10/23/20:07:59.710680,420,1603480079,677664908,map,0.0716161196656,0.000231147259771,0.00184065820638,0.000172633490664,-0.00377826839665,-0.0114342813852,0.999927473417
2020/10/23/20:07:59.744444,421,1603480079,710946908,map,0.0735471147543,9.20549013481e-06,0.00186087047198,0.000122070315829,-0.00380185838913,-0.0113051872059,0.999928859326
2020/10/23/20:07:59.777859,422,1603480079,744245908,map,0.0752529195362,-3.93705055833e-05,0.00189921927834,0.000122070313993,-0.00351045028873,-0.0115664444415,0.999926936931
2020/10/23/20:07:59.811352,423,1603480079,777656908,map,0.076976157756,-0.000214076636863,0.00192560515181,0.000244140633419,-0.00368037460025,-0.0116229918137,0.999925647886
2020/10/23/20:07:59.844276,424,1603480079,811107908,map,0.0786454309093,-0.000271048844768,0.00198003955055,0.0,-0.00368442105882,-0.0119060799121,0.999922332135
2020/10/23/20:07:59.877592,425,1603480079,844125908,map,0.0800846984722,-0.000316399037029,0.00201619779583,0.000172633490588,-0.00355893075019,-0.0120014428649,0.999921631719
2020/10/23/20:07:59.911044,426,1603480079,877719908,map,0.0820477811988,-0.000359917880274,0.00206765943311,0.0,-0.00337409056491,-0.012172191093,0.999920223456
2020/10/23/20:07:59.944635,427,1603480079,910962908,map,0.0840242884424,-0.000391669273373,0.00207397698578,0.0,-0.00341578833069,-0.0122697364101,0.99991888969
2020/10/23/20:07:59.977519,428,1603480079,944067908,map,0.0854781937527,-0.000443098545847,0.00218286129806,0.0,-0.00334526105934,-0.0122375105131,0.999919523044
2020/10/23/20:08:00.010791,429,1603480079,977610908,map,0.0869410738345,-0.000627747921714,0.00224237920334,0.0,-0.00342885056999,-0.0122812688859,0.999918703405
2020/10/23/20:08:00.043976,430,1603480080,11098908,map,0.0884357841168,-0.000709459186807,0.00224917027887,0.0,-0.00350832699857,-0.0124679149626,0.999916117851
2020/10/23/20:08:00.082510,431,1603480080,44163908,map,0.0905162176606,-0.000768795907381,0.00225434439155,0.0,-0.00336081530956,-0.0124553598967,0.999916781002
2020/10/23/20:08:00.110685,432,1603480080,77894908,map,0.0923081693931,-0.000861049145734,0.00225049109819,0.0,-0.00339390587302,-0.0125756121708,0.999915164092
2020/10/23/20:08:00.143980,433,1603480080,110942908,map,0.093829493175,-0.00104179859308,0.00231343746236,0.0,-0.00339829359121,-0.0127246220101,0.999913264036
2020/10/23/20:08:00.177336,434,1603480080,144058908,map,0.095463511737,-0.00113079995011,0.0022861541571,0.000211431974008,-0.00351892937994,-0.0127847889812,0.999912056935
2020/10/23/20:08:00.211342,435,1603480080,177578908,map,0.0973307098294,-0.00133668303538,0.002294508249,0.000211431980304,-0.00356102340261,-0.0127941100383,0.999911788688
2020/10/23/20:08:00.244298,436,1603480080,210961908,map,0.0989523744635,-0.00142528727495,0.00239470461778,0.000211431981792,-0.00328457615095,-0.0132101291328,0.999907325378
2020/10/23/20:08:00.277475,437,1603480080,244278908,map,0.100897140721,-0.00148024246274,0.002362072743,0.000366210927718,-0.00367023832606,-0.0131621003361,0.999906572813
2020/10/23/20:08:00.311479,438,1603480080,277522908,map,0.103194541372,-0.00155304029822,0.0024294581023,0.000366210925071,-0.00336303154699,-0.0130632338337,0.99990894977
2020/10/23/20:08:00.343994,439,1603480080,310897908,map,0.104953036179,-0.00159426793567,0.00246513551417,0.000345266965294,-0.00337409053575,-0.0132467378992,0.999906505749
2020/10/23/20:08:00.377926,440,1603480080,344284908,map,0.107006739818,-0.0017390438915,0.00252478288089,0.000472776305657,-0.00345266986504,-0.0133269253642,0.999905119806
2020/10/23/20:08:00.411131,441,1603480080,377616908,map,0.109065720875,-0.00181942000858,0.0025574864652,0.000456745304408,-0.00337850399041,-0.0134886318333,0.999903212269
2020/10/23/20:08:00.444167,442,1603480080,411043908,map,0.111656359054,-0.00203025996543,0.00285900508324,0.000610351573288,-0.00356520555696,-0.0134249602023,0.99990333894
2020/10/23/20:08:00.477684,443,1603480080,444287908,map,0.114164812961,-0.00210886120656,0.00268544281402,0.00040486145458,-0.00410708105893,-0.0135942713236,0.999899076787
2020/10/23/20:08:00.511051,444,1603480080,477530908,map,0.11722300205,-0.0023269432793,0.00280176685064,0.000559396465222,-0.00335859790022,-0.0137782722204,0.999899277983
2020/10/23/20:08:00.544721,445,1603480080,510941908,map,0.120319113054,-0.00257954254601,0.00283049730678,0.000572560543831,-0.00326409734465,-0.0138209260688,0.999898994822
2020/10/23/20:08:00.578042,446,1603480080,544435908,map,0.123065312032,-0.00280003026196,0.00289336950803,0.00066860665415,-0.00324807963858,-0.0139432938858,0.999897288475
2020/10/23/20:08:00.611227,447,1603480080,577448908,map,0.125589627036,-0.00295546605955,0.00293157336105,0.000668606678939,-0.00323659026495,-0.0140624794808,0.999895656616
2020/10/23/20:08:00.644930,448,1603480080,611024908,map,0.127869826514,-0.00326427817551,0.00310712843099,0.000701240540551,-0.00331393343127,-0.0141433083349,0.999894240876
2020/10/23/20:08:00.677366,449,1603480080,644337908,map,0.129913300315,-0.00336857244055,0.00316340672128,0.000732421903232,-0.00378417983337,-0.0143841110126,0.999889114298
2020/10/23/20:08:00.711348,450,1603480080,677396908,map,0.132242992095,-0.00361054793118,0.00327545307353,0.00072217770805,-0.00365803796625,-0.0145212369383,0.999887609132
2020/10/23/20:08:00.744225,451,1603480080,710960908,map,0.134879764588,-0.00372170299588,0.0032941181203,0.000781631359687,-0.00397994121901,-0.014682982512,0.999883972841
2020/10/23/20:08:00.777632,452,1603480080,744259908,map,0.137939761965,-0.00393095925467,0.00331290029009,0.000701240534556,-0.0032663789095,-0.0148334266036,0.999884397561
2020/10/23/20:08:00.810953,453,1603480080,777440908,map,0.140366557077,-0.00437678739465,0.00379575318348,0.000827921166109,-0.00323659026086,-0.0148540058809,0.999884092052
2020/10/23/20:08:00.844407,454,1603480080,811068908,map,0.142966761422,-0.00449466750149,0.00366524755784,0.000634295900432,-0.00369048244519,-0.0152030227621,0.99987741554
2020/10/23/20:08:00.877400,455,1603480080,844383908,map,0.145172708882,-0.00488696381147,0.00407499922677,0.000742524779248,-0.00324119106533,-0.0151303193813,0.999880001187
2020/10/23/20:08:00.910974,456,1603480080,877417908,map,0.147649755378,-0.00498081922629,0.00415304977404,0.000572560516655,-0.0041896979302,-0.0152631826949,0.999874569063
2020/10/23/20:08:00.944430,457,1603480080,911071908,map,0.149788138477,-0.00495018928974,0.00417954562943,0.000559396475532,-0.00425323530014,-0.0157995023574,0.999865977414
2020/10/23/20:08:00.977761,458,1603480080,944709908,map,0.152939336858,-0.00500199660987,0.00400897882514,0.000585428662412,-0.00400048068752,-0.0157730707202,0.999867423045
2020/10/23/20:08:01.010756,459,1603480080,977535908,map,0.156439733535,-0.00536820665169,0.00424985289863,0.000559396454975,-0.00372464509315,-0.0156973114768,0.999869695764
2020/10/23/20:08:01.044325,460,1603480081,11015908,map,0.159300501692,-0.00543900594244,0.00419684737469,0.000488281263422,-0.00445012853607,-0.0161105063516,0.999860194989
2020/10/23/20:08:01.077379,461,1603480081,44310908,map,0.162154704798,-0.00551041275447,0.00416395580667,0.000472776285462,-0.00406147573058,-0.0162976434776,0.999858823892
2020/10/23/20:08:01.110705,462,1603480081,77458908,map,0.166046871769,-0.00577799498969,0.00418366437661,0.000404861419396,-0.00384860400609,-0.0163806353688,0.999858339526
2020/10/23/20:08:01.144913,463,1603480081,110895908,map,0.168817169219,-0.00595686182342,0.00439217968372,0.000622438877512,-0.00360469293376,-0.0165705672955,0.999856007162
2020/10/23/20:08:01.177348,464,1603480081,144465908,map,0.171577933837,-0.00612266704817,0.00444814934082,0.000559396449477,-0.00379204696551,-0.0167405527745,0.999852519799
2020/10/23/20:08:01.215062,465,1603480081,177602908,map,0.174810632057,-0.00625812143627,0.0045000341697,0.000610351546397,-0.00407246768906,-0.0169216036057,0.999848339404
2020/10/23/20:08:01.244145,466,1603480081,210922908,map,0.177946975758,-0.00636805385466,0.00460265794716,0.000488281244299,-0.00387561223601,-0.0170409453906,0.999847162016
2020/10/23/20:08:01.277609,467,1603480081,244363908,map,0.181050417289,-0.0067458610216,0.00465095489865,0.000472776291415,-0.00430892632226,-0.0171577200635,0.999843398877
2020/10/23/20:08:01.310666,468,1603480081,277776908,map,0.184457609811,-0.00685759886822,0.00480734704643,0.000517900459651,-0.00397619565074,-0.0175938013125,0.999837176646
2020/10/23/20:08:01.344262,469,1603480081,310799908,map,0.187589143258,-0.00695453822333,0.00482344568155,0.000440130770686,-0.00417366254895,-0.0177531541902,0.999833592325
2020/10/23/20:08:01.377868,470,1603480081,344432908,map,0.190930457909,-0.00706226944894,0.00533651259844,0.000503308769212,-0.00360675939992,-0.0179368607571,0.999832489467
2020/10/23/20:08:01.415169,471,1603480081,377706908,map,0.194255555311,-0.00718633279089,0.0054405587565,0.00024414062313,-0.00399115771723,-0.0182101743763,0.999826185197
2020/10/23/20:08:01.444057,472,1603480081,410760908,map,0.197085522817,-0.00753128215467,0.00542588158389,0.000299009982239,-0.00427768928215,-0.0184156331573,0.999821222231
2020/10/23/20:08:01.477875,473,1603480081,444357908,map,0.200421020582,-0.00770427450159,0.00561648146896,0.000211431979079,-0.00400420417116,-0.0188126954762,0.999814984952
2020/10/23/20:08:01.510621,474,1603480081,477809908,map,0.203569358092,-0.0078124234076,0.00560377701683,0.0,-0.00421098335706,-0.019118331164,0.999808360153
2020/10/23/20:08:01.543990,475,1603480081,510791908,map,0.207434508869,-0.00806410893924,0.00576533835614,0.0,-0.00409981842591,-0.0193183739384,0.999804976942
2020/10/23/20:08:01.577692,476,1603480081,544390908,map,0.210192939939,-0.00814307719955,0.00573069617249,0.0,-0.00425498641474,-0.0195746882079,0.999799343205
2020/10/23/20:08:01.610804,477,1603480081,577699908,map,0.213407087367,-0.00831103265431,0.00587440845796,0.0,-0.00395364626448,-0.0196260057974,0.999799574204
2020/10/23/20:08:01.644258,478,1603480081,610920908,map,0.21678036769,-0.00845845639673,0.00605316334898,-0.000211431986164,-0.00383697112917,-0.019846846039,0.999795646946
2020/10/23/20:08:01.677463,479,1603480081,644443908,map,0.219693236397,-0.00863021448718,0.00611754073515,-0.000299009987147,-0.00415397944734,-0.0200411042652,0.999790482645
2020/10/23/20:08:01.711072,480,1603480081,677738908,map,0.22300216778,-0.00872663154994,0.00621587292155,-0.000386020229544,-0.00400606405903,-0.0202846193229,0.999786145462
2020/10/23/20:08:01.744125,481,1603480081,710913908,map,0.226305862203,-0.0088425971534,0.0062806949477,-0.000559396454975,-0.00400606399729,-0.0203956084458,0.999783805471
2020/10/23/20:08:01.777540,482,1603480081,744362908,map,0.229230073522,-0.00903290361171,0.00636761568269,-0.000488281256383,-0.00414500158111,-0.0205520878439,0.99978007193
2020/10/23/20:08:01.810580,483,1603480081,777712908,map,0.232385560303,-0.00912794962288,0.00657905109965,-0.000679658724073,-0.00407795234444,-0.0207311193846,0.999776539562
2020/10/23/20:08:01.843896,484,1603480081,810859908,map,0.236261404895,-0.00931402147494,0.00664607124652,-0.00078163135642,-0.00446183262858,-0.0208311463609,0.9997727464
2020/10/23/20:08:01.881526,485,1603480081,844453908,map,0.239159893179,-0.00938811868304,0.00671109794162,-0.000845727901666,-0.00401163978108,-0.0211625709717,0.999767641545
2020/10/23/20:08:01.911036,486,1603480081,877695908,map,0.242301197272,-0.0094830958538,0.00678148968771,-0.000984162291235,-0.00401349631322,-0.0211343869758,0.999768103592
2020/10/23/20:08:01.944273,487,1603480081,910994908,map,0.246193829841,-0.00971970155617,0.00704336460499,-0.000999188503819,-0.00398368383443,-0.0212367267492,0.999766039292
2020/10/23/20:08:01.977710,488,1603480081,944327908,map,0.249191412058,-0.00980241686361,0.00711815240319,-0.00100661755476,-0.00413420281993,-0.0212577654794,0.999764973629
2020/10/23/20:08:02.011202,489,1603480081,977637908,map,0.252968261448,-0.0100221203317,0.0071858222417,-0.0010358008743,-0.00412156794304,-0.0211192214766,0.999767932212
2020/10/23/20:08:02.044044,490,1603480082,10997908,map,0.256623564654,-0.0101147367029,0.00723963155385,-0.00115806060749,-0.0037465842424,-0.0213500947737,0.999764369967
2020/10/23/20:08:02.077984,491,1603480082,44482908,map,0.260639641647,-0.0101650238025,0.00732715607141,-0.00104296914819,-0.00333410632413,-0.0211252192069,0.999770734251
2020/10/23/20:08:02.111150,492,1603480082,77737908,map,0.264018140661,-0.0102733994988,0.00741976518766,-0.00102131351075,-0.00334526119242,-0.0204248117637,0.999785273552
2020/10/23/20:08:02.144566,493,1603480082,111078908,map,0.267275336432,-0.0103428103076,0.00750092848054,-0.00115806057997,-0.00336967116912,-0.0201108746312,0.999791406711
2020/10/23/20:08:02.177545,494,1603480082,144280908,map,0.270976090183,-0.0104581284468,0.00758815818057,-0.00123284970452,-0.002927143449,-0.0201338330848,0.999792248759
2020/10/23/20:08:02.210814,495,1603480082,177661908,map,0.273995851993,-0.0105356016835,0.00793208462825,-0.00115160895991,-0.0028705994023,-0.0201027218411,0.999793135619
2020/10/23/20:08:02.244410,496,1603480082,211143908,map,0.27690086504,-0.0105930584679,0.00813008918287,-0.00105008857967,-0.00312175585885,-0.0199397285569,0.999795758732
2020/10/23/20:08:02.277533,497,1603480082,244323908,map,0.280228778765,-0.0106769449997,0.00822216247148,-0.00107809576293,-0.00353582718956,-0.0197433402764,0.999798247723
2020/10/23/20:08:02.310815,498,1603480082,277824908,map,0.283319445243,-0.0107118898698,0.00822230879366,-0.0008544921586,-0.00368846288514,-0.0193626743712,0.99980535702
2020/10/23/20:08:02.344025,499,1603480082,311096908,map,0.287440410612,-0.0107430805247,0.00825707783439,-0.000863167456476,-0.00301491422297,-0.0186004079704,0.999822079201
2020/10/23/20:08:02.377551,500,1603480082,344165908,map,0.290974489073,-0.0111167755716,0.00845979881772,-0.000781631394657,-0.00298261528491,-0.0180758891249,0.99983186351
2020/10/23/20:08:02.410816,501,1603480082,377838908,map,0.294603151406,-0.0111932063106,0.00871294304157,-0.000701240534787,-0.0033296341052,-0.0179077605233,0.999833853153
2020/10/23/20:08:02.443986,502,1603480082,411075908,map,0.298320015141,-0.0112421137153,0.00872153351376,-0.000711786064521,-0.00329589829612,-0.0176766060161,0.999838070897
2020/10/23/20:08:02.477822,503,1603480082,444283908,map,0.301348461298,-0.0114112500827,0.00903583588794,-0.000634295935532,-0.00319021829565,-0.0172140787664,0.999846536058
2020/10/23/20:08:02.511149,504,1603480082,477889908,map,0.305009236768,-0.0117643663296,0.00910376155004,-0.000690533936433,-0.00360262547672,-0.016749452369,0.999852989243
2020/10/23/20:08:02.544243,505,1603480082,511131908,map,0.30792059658,-0.0119085356547,0.00915985440546,-0.000742524765473,-0.00375453043395,-0.0167285338734,0.999852743314
2020/10/23/20:08:02.578189,506,1603480082,544218908,map,0.311621709371,-0.0119999696321,0.00932801992556,-0.000657368730555,-0.00377629597389,-0.0166118812549,0.999854665867
2020/10/23/20:08:02.611526,507,1603480082,577768908,map,0.31461961061,-0.0120578116144,0.00939013803395,-0.000722177737715,-0.00413059678115,-0.0162541569086,0.99985909958
2020/10/23/20:08:02.644418,508,1603480082,611110908,map,0.318452160345,-0.0121143554113,0.00943362982506,-0.000888685292974,-0.00399115776847,-0.0161852539424,0.999860649517
2020/10/23/20:08:02.677658,509,1603480082,644284908,map,0.322199863498,-0.0121534733474,0.00971072847766,-0.000880261538682,-0.0037565143052,-0.0161313042922,0.999862437919
2020/10/23/20:08:02.711057,510,1603480082,677786908,map,0.325460824374,-0.0121751695885,0.00971250826259,-0.000880261532519,-0.00441145290863,-0.0157584212474,0.999865709174
2020/10/23/20:08:02.744107,511,1603480082,711137908,map,0.32916723428,-0.0121790930633,0.00978903499343,-0.000913490605531,-0.00405045415161,-0.0154990843591,0.999871260583
2020/10/23/20:08:02.777668,512,1603480082,744212908,map,0.33365497544,-0.012166410088,0.00999073199223,-0.000968903099096,-0.00398742279706,-0.0151293338114,0.999877124923
2020/10/23/20:08:02.810934,513,1603480082,777841908,map,0.336704392862,-0.0121633321047,0.0100579220606,-0.000863167438233,-0.00414679888797,-0.0148815677011,0.999880291807
2020/10/23/20:08:02.844108,514,1603480082,811023908,map,0.340997452188,-0.0121676951651,0.0101018116149,-0.000742524757567,-0.00415218534899,-0.0145642722456,0.999885038386
2020/10/23/20:08:02.877784,515,1603480082,844274908,map,0.344560635301,-0.0123816347138,0.0103292358649,-0.000532092170212,-0.0039062499479,-0.0141969395771,0.999891446606
2020/10/23/20:08:02.910764,516,1603480082,877812908,map,0.34858802457,-0.012428565025,0.010390714035,-0.000440130757895,-0.00409254237043,-0.0139955623922,0.999893585146
2020/10/23/20:08:02.944269,517,1603480082,911036908,map,0.351622806185,-0.0126787215452,0.0106605586923,-0.00012207031549,-0.00412698798677,-0.0137436216338,0.999897027665
2020/10/23/20:08:02.977379,518,1603480082,944376908,map,0.355737655839,-0.0127655819062,0.0107834360697,0.0,-0.00447184081281,-0.0135366013583,0.999898376368
2020/10/23/20:08:03.011163,519,1603480082,977730908,map,0.359697185739,-0.0128601175532,0.0110229989208,0.0,-0.00441820368294,-0.0135838540737,0.999897973988
2020/10/23/20:08:03.044183,520,1603480083,11097908,map,0.363257230579,-0.0129936665303,0.0111383346393,0.0,-0.00470723116152,-0.013536601256,0.999897295927
2020/10/23/20:08:03.077768,521,1603480083,44391908,map,0.367399275067,-0.013101907969,0.011331608673,0.0,-0.00453635346177,-0.0132399870324,0.999902057324
2020/10/23/20:08:03.111274,522,1603480083,77681908,map,0.370973239016,-0.013545524329,0.0116026581582,0.0,-0.0045999617953,-0.0128069153369,0.999907407349
2020/10/23/20:08:03.144188,523,1603480083,111215908,map,0.37450151579,-0.0136581143749,0.0117471805716,0.0,-0.00508170367335,-0.0129417557432,0.999903338951
2020/10/23/20:08:03.177472,524,1603480083,144500908,map,0.378338957397,-0.0137642429777,0.0118518654135,0.0,-0.00521484624247,-0.0127877025305,0.999904635474
2020/10/23/20:08:03.211393,525,1603480083,177633908,map,0.381931951217,-0.0139425721771,0.0120511504744,0.0,-0.00522483747335,-0.0124146165741,0.99990928507
2020/10/23/20:08:03.244270,526,1603480083,211190908,map,0.385824433978,-0.014015612604,0.0122468968573,0.000122070310197,-0.00532651961979,-0.0122369013281,0.9999109318
2020/10/23/20:08:03.277748,527,1603480083,244585908,map,0.389518810632,-0.0140806663054,0.0123517879247,0.0,-0.00554177705033,-0.0122745926986,0.999909307428
2020/10/23/20:08:03.311385,528,1603480083,277639908,map,0.39328817885,-0.0142097227296,0.0127565060956,0.0,-0.0055886341324,-0.0122691284462,0.999909113698
2020/10/23/20:08:03.344722,529,1603480083,311131908,map,0.396869567644,-0.0142704311025,0.0128697483521,0.0,-0.0060199354067,-0.0122320296666,0.999907064595
2020/10/23/20:08:03.377573,530,1603480083,344595908,map,0.400696792434,-0.014425744115,0.0129300637865,0.000211431983367,-0.00607660097793,-0.0121850392186,0.999907273219
2020/10/23/20:08:03.411182,531,1603480083,377629908,map,0.404471440261,-0.0144857735944,0.0131171726808,0.000386020210873,-0.00624351131003,-0.0119970957434,0.999908465435
2020/10/23/20:08:03.444043,532,1603480083,411226908,map,0.407614219903,-0.0145663562426,0.0132033997854,0.000345266967982,-0.006548705338,-0.0116913790524,0.999910149416
2020/10/23/20:08:03.477636,533,1603480083,444408908,map,0.411893789706,-0.0147236242892,0.0133548261086,0.000272957519747,-0.00639792855242,-0.011575458527,0.999912496554
2020/10/23/20:08:03.510552,534,1603480083,477642908,map,0.415720807896,-0.0148215574015,0.0136216207151,0.000172633499437,-0.00631470599001,-0.0117600036753,0.99991089453
2020/10/23/20:08:03.544188,535,1603480083,511019908,map,0.419241367083,-0.0148871350289,0.0136899560761,0.000366210938654,-0.00662561834084,-0.0118929315733,0.999907258324
2020/10/23/20:08:03.577713,536,1603480083,544427908,map,0.423089212943,-0.0150556844473,0.0138176747304,0.000299009994739,-0.00649501255533,-0.0116779890193,0.999910670999
2020/10/23/20:08:03.610970,537,1603480083,577515908,map,0.427273130063,-0.0151304903636,0.013998117005,0.0,-0.00624470507979,-0.0118891718269,0.99990982156
2020/10/23/20:08:03.644177,538,1603480083,611216908,map,0.431023406853,-0.0151751811816,0.0140905666686,0.0,-0.00630762234495,-0.0118923046184,0.99990938939
2020/10/23/20:08:03.677579,539,1603480083,644570908,map,0.43519677807,-0.0152121689949,0.0141569784961,0.0,-0.00614730369427,-0.0117136614419,0.999912496568
2020/10/23/20:08:03.710708,540,1603480083,677509908,map,0.439728781448,-0.015237672179,0.0142471870435,0.0,-0.00592638465809,-0.0115037915676,0.999916266867
2020/10/23/20:08:03.744733,541,1603480083,711050908,map,0.443916859494,-0.0152494731544,0.0143107105765,-0.000122070312098,-0.00579030344216,-0.0113499136267,0.999918815177
2020/10/23/20:08:03.778053,542,1603480083,744565908,map,0.448130647478,-0.0152357649798,0.014294240074,-0.000366210944465,-0.00552562029365,-0.0115154434323,0.999918360654
2020/10/23/20:08:03.811078,543,1603480083,777604908,map,0.452663456672,-0.0152839118233,0.0144019119398,-0.000211431988387,-0.00494799038584,-0.0113177024832,0.999923688237
2020/10/23/20:08:03.844381,544,1603480083,811050908,map,0.456803246101,-0.0153725852068,0.0144618621193,-0.000456745291723,-0.00511822607693,-0.0109278501886,0.99992708596
2020/10/23/20:08:03.877825,545,1603480083,844490908,map,0.461400172429,-0.0154143890743,0.014527555614,-0.000634295927062,-0.00465630648969,-0.0112761520376,0.999925379653
2020/10/23/20:08:03.911515,546,1603480083,877678908,map,0.465636134098,-0.015470980853,0.0146156543898,-0.000272957517982,-0.00480436249347,-0.01129859488,0.999924589831
2020/10/23/20:08:03.944419,547,1603480083,911195908,map,0.469793718818,-0.0154944673188,0.0146680022289,-0.000440130769107,-0.00495551342715,-0.0108594559666,0.999928658149
2020/10/23/20:08:03.977781,548,1603480083,944462908,map,0.474347855731,-0.0154908476768,0.0148781847183,-0.000818872561933,-0.00434337105902,-0.0107116265246,0.999932860563
2020/10/23/20:08:04.011057,549,1603480083,977692908,map,0.478901071619,-0.0156115429102,0.0151875467118,-0.000953399639421,-0.00412879281034,-0.010765743498,0.999933069193
2020/10/23/20:08:04.044297,550,1603480084,10995908,map,0.482808833438,-0.0156470963343,0.015278870495,-0.00102858271444,-0.00432790501601,-0.0112596222458,0.999926713396
2020/10/23/20:08:04.077854,551,1603480084,44520908,map,0.486708644539,-0.0156720274675,0.0153530861071,-0.00108498465041,-0.00431238309442,-0.0116255555689,0.999922533308
2020/10/23/20:08:04.111268,552,1603480084,77775908,map,0.491117101976,-0.0156867511572,0.0154541341812,-0.000999188506017,-0.00436732028778,-0.0114186321143,0.999924768658
2020/10/23/20:08:04.144471,553,1603480084,110963908,map,0.495103987202,-0.0156771858038,0.0155296225431,-0.00123887834753,-0.00448514985634,-0.0110235642359,0.999928412259
2020/10/23/20:08:04.177621,554,1603480084,144446908,map,0.499587876645,-0.0156599991019,0.0156179608,-0.00156802162175,-0.0043071969955,-0.0107060607009,0.999932182514
2020/10/23/20:08:04.212530,555,1603480084,177931908,map,0.50364357158,-0.0156638510529,0.0156420169089,-0.00165584230272,-0.00395176142676,-0.0106579335969,0.999934022933
2020/10/23/20:08:04.244159,556,1603480084,211003908,map,0.508335628761,-0.0156575904785,0.0156496215431,-0.00182289856389,-0.00386213195912,-0.0107505073009,0.999933091547
2020/10/23/20:08:04.277371,557,1603480084,244438908,map,0.5128780591,-0.0156682413804,0.0156946223607,-0.00166928640992,-0.00347632590673,-0.010726223757,0.999935036272
2020/10/23/20:08:04.311273,558,1603480084,277771908,map,0.517105962442,-0.0156955757745,0.0156779492278,-0.00160558428321,-0.00349342962088,-0.0103118708168,0.999939439851
2020/10/23/20:08:04.348161,559,1603480084,310896908,map,0.521383746653,-0.0158305722472,0.0161239335532,-0.00138645227275,-0.00335193621191,-0.0096867236263,0.999946503399
2020/10/23/20:08:04.378123,560,1603480084,344470908,map,0.525149318779,-0.0158176106205,0.0161916783188,-0.0013647876239,-0.0039705705393,-0.00922257206945,0.999948656726
2020/10/23/20:08:04.411424,561,1603480084,377910908,map,0.529290729485,-0.015712296366,0.0162449652902,-0.00143400153055,-0.00442999194936,-0.00875253534757,0.99995085476
2020/10/23/20:08:04.444314,562,1603480084,411103908,map,0.53416654157,-0.0156399759645,0.016350241326,-0.00139181573951,-0.00435707258542,-0.00819418311357,0.999955966096
2020/10/23/20:08:04.477643,563,1603480084,444608908,map,0.538995889142,-0.0156062692397,0.0164232941224,-0.00145974865375,-0.00453963752599,-0.00770978191996,0.9999589092
2020/10/23/20:08:04.512457,564,1603480084,477951908,map,0.544262182412,-0.0156337252258,0.0166962283644,-0.00123284967522,-0.00457722976187,-0.00707902577857,0.999963707563
2020/10/23/20:08:04.544286,565,1603480084,511017908,map,0.549288286764,-0.015530970096,0.0166674523125,-0.0012627051021,-0.00496452638506,-0.0065190579298,0.999965629878
2020/10/23/20:08:04.578542,566,1603480084,544511908,map,0.555065691504,-0.015331150889,0.0168036078479,-0.00120843449003,-0.00440807370842,-0.00583261124568,0.999972544232
2020/10/23/20:08:04.611059,567,1603480084,577854908,map,0.560520233629,-0.0152140942217,0.0171075878862,-0.0012918707502,-0.00446517123476,-0.00458536120964,0.999978683662
2020/10/23/20:08:04.644185,568,1603480084,610980908,map,0.565854286631,-0.0148872978985,0.0171977485335,-0.00143918780262,-0.00454619763008,-0.0036067595037,0.999982125896
2020/10/23/20:08:04.677839,569,1603480084,644419908,map,0.571075714969,-0.0147900411487,0.0173830228604,-0.00129762522788,-0.00494497774186,-0.00248975559121,0.99998383211
2020/10/23/20:08:04.710872,570,1603480084,677852908,map,0.575948477278,-0.0146198517083,0.0176596486388,-0.00120843448135,-0.00496452635045,-0.00197588073218,0.999984994417
2020/10/23/20:08:04.744454,571,1603480084,710968908,map,0.580956965198,-0.0142279733717,0.0177745346108,-0.00123284969424,-0.00552157371463,-0.00109863283691,0.999983392518
2020/10/23/20:08:04.777503,572,1603480084,744594908,map,0.586764213771,-0.0140084646642,0.0180208477648,-0.00141306609853,-0.00505524423089,-0.000211431985832,0.999986201428
2020/10/23/20:08:04.812449,573,1603480084,777835908,map,0.591735399946,-0.0136601918936,0.0181178988675,-0.00149005801689,-0.00512695308628,0.0,0.999985746938
2020/10/23/20:08:04.844150,574,1603480084,810982908,map,0.597184059961,-0.0135383024812,0.0182303801514,-0.00159627647482,-0.00492988777969,0.00109863285332,0.999985970458
2020/10/23/20:08:04.877744,575,1603480084,844528908,map,0.602745993627,-0.0134438446164,0.0183916296182,-0.00173923418475,-0.00477168472605,0.00164681858071,0.999985746937
2020/10/23/20:08:04.911183,576,1603480084,877850908,map,0.608335545294,-0.0132588414847,0.0185031026362,-0.00187130256057,-0.00473878177722,0.00174778101008,0.999985493613
2020/10/23/20:08:04.944297,577,1603480084,911078908,map,0.614189443019,-0.0131645616889,0.0185949107754,-0.00199464544081,-0.00438094694589,0.0019145980333,0.999986581414
2020/10/23/20:08:04.977746,578,1603480084,944390908,map,0.619777151142,-0.0130197489262,0.0186799696774,-0.00215619153745,-0.00406514300471,0.00195693600098,0.999987497848
2020/10/23/20:08:05.011172,579,1603480084,977843908,map,0.625420346475,-0.0129380916059,0.0190116625521,-0.00215273350469,-0.00332515593605,0.00148002384225,0.999991059263
2020/10/23/20:08:05.044565,580,1603480085,11193908,map,0.630628080402,-0.0128766231239,0.0192186365895,-0.00191459809045,-0.00358396450603,0.00134277346746,0.999990843194
2020/10/23/20:08:05.078002,581,1603480085,44436908,map,0.635982504119,-0.0128300283849,0.0193238619935,-0.00196832464998,-0.00376641820165,0.00148504949167,0.999989867159
2020/10/23/20:08:05.111262,582,1603480085,77969908,map,0.641362846104,-0.0128081218898,0.019383540722,-0.001953125029,-0.00377629609798,0.00150992642071,0.999989822455
2020/10/23/20:08:05.144904,583,1603480085,111269908,map,0.646682042143,-0.0127946314215,0.0195275529539,-0.00202062325682,-0.00383308544549,0.00133162990023,0.999989725597
2020/10/23/20:08:05.178056,584,1603480085,144462908,map,0.652039766937,-0.0126796580852,0.0195764683909,-0.00210726020447,-0.00382919595262,0.00121458417396,0.999989710696
2020/10/23/20:08:05.211168,585,1603480085,177969908,map,0.657685285103,-0.012655210048,0.0197930021576,-0.00207878250315,-0.00368239818223,0.00147498117417,0.999989971468
2020/10/23/20:08:05.244648,586,1603480085,211178908,map,0.662714174656,-0.0125501705707,0.0198750296539,-0.00228372635304,-0.00401349645081,0.00146992120416,0.999988257817
2020/10/23/20:08:05.278342,587,1603480085,244507908,map,0.66788244921,-0.0125125810504,0.0199303583809,-0.00230645062388,-0.00388137530512,0.00133721332523,0.999988913474
2020/10/23/20:08:05.311373,588,1603480085,277899908,map,0.673067039821,-0.0124778963625,0.0201049813066,-0.00232575188789,-0.00378811556937,0.00141306609859,0.999989122092
2020/10/23/20:08:05.344943,589,1603480085,311350908,map,0.678080105656,-0.0124070264399,0.020175180722,-0.00239519242952,-0.00414320367007,0.0018792485631,0.999986782583
2020/10/23/20:08:05.378333,590,1603480085,344423908,map,0.682986205618,-0.0120109616219,0.0204223442643,-0.00262096087693,-0.00402832040215,0.00218024552064,0.999986074767
2020/10/23/20:08:05.411486,591,1603480085,377992908,map,0.688246101792,-0.0119219532609,0.0206232650292,-0.00276752538018,-0.00394987547728,0.0024137841535,0.999985456361
2020/10/23/20:08:05.445315,592,1603480085,411242908,map,0.693781998045,-0.0119245916606,0.0208128899269,-0.00266046067072,-0.00416114724525,0.00241686883665,0.99998488266
2020/10/23/20:08:05.477710,593,1603480085,444489908,map,0.699193722446,-0.0118969404696,0.0209584967531,-0.00262664006251,-0.0041861399696,0.00228698671453,0.999985173233
2020/10/23/20:08:05.510846,594,1603480085,477959908,map,0.704721586804,-0.0119770835339,0.0212393229847,-0.00248676142625,-0.00440638326054,0.00239830114849,0.999984323855
2020/10/23/20:08:05.544053,595,1603480085,511243908,map,0.710022052985,-0.0119797325134,0.021351251473,-0.00239830107695,-0.00485987015413,0.00234489415268,0.999982565491
2020/10/23/20:08:05.577590,596,1603480085,544446908,map,0.715638969178,-0.0121015658974,0.0214964504876,-0.0023607274752,-0.00477012307562,0.00228698674854,0.999983221151
2020/10/23/20:08:05.611133,597,1603480085,577800908,map,0.721363736625,-0.0121611110866,0.0217526408935,-0.00233534254346,-0.004867529889,0.00206439636337,0.999983295658
2020/10/23/20:08:05.644368,598,1603480085,611376908,map,0.726680794973,-0.0121766135097,0.0218647245557,-0.00238271732775,-0.00525186164217,0.00179405987698,0.999981760812
2020/10/23/20:08:05.678312,599,1603480085,644353908,map,0.732753574453,-0.0121934686601,0.0220872572465,-0.00229673922329,-0.0051876291783,0.00170024272289,0.99998246118
2020/10/23/20:08:05.711266,600,1603480085,677885908,map,0.738660037462,-0.0120852531493,0.0221871224456,-0.00247173539398,-0.00558996696019,0.00158691401489,0.99998006205
2020/10/23/20:08:05.744581,601,1603480085,711338908,map,0.745103971527,-0.0119829782843,0.0222804548043,-0.00273502897429,-0.0050817038856,0.00132039235884,0.99998247608
2020/10/23/20:08:05.779046,602,1603480085,744465908,map,0.751839513629,-0.0118943884968,0.0224195548595,-0.00283665781449,-0.00464027814765,0.00120225321273,0.999984487769
2020/10/23/20:08:05.811878,603,1603480085,778004908,map,0.758618492851,-0.0118452642857,0.0225503632064,-0.0028835479811,-0.00461774422807,0.00133721335504,0.999984286601
2020/10/23/20:08:05.844750,604,1603480085,811299908,map,0.76438067081,-0.0117351932823,0.0227203359505,-0.00311458762695,-0.00456255674303,0.00124487781415,0.999983966221
2020/10/23/20:08:05.879075,605,1603480085,844609908,map,0.770373253485,-0.011679225415,0.0230088807812,-0.00321812164134,-0.00460481836742,0.00103580091747,0.999983683096
2020/10/23/20:08:05.911191,606,1603480085,877794908,map,0.775893535039,-0.0114363236725,0.0232199664129,-0.0033273957912,-0.00493592958767,0.00107116264605,0.999981708656
2020/10/23/20:08:05.944700,607,1603480085,911269908,map,0.781710425114,-0.0112858353554,0.0233429326405,-0.00345698309342,-0.00501529278172,0.00135382523967,0.999980531442
2020/10/23/20:08:05.977825,608,1603480085,944445908,map,0.788245980049,-0.0112016642093,0.0235797272053,-0.00357980434086,-0.00476543483298,0.00143918784549,0.999981202008
2020/10/23/20:08:06.013913,609,1603480085,977833908,map,0.793938717075,-0.0110696718098,0.023781237572,-0.00365803801596,-0.00473563595252,0.00124487778627,0.99998132122
2020/10/23/20:08:06.044952,610,1603480086,11329908,map,0.799938902259,-0.0110087408124,0.0240083196178,-0.00366617628183,-0.00475604513212,0.00120843448127,0.99998123926
2020/10/23/20:08:06.077551,611,1603480086,44729908,map,0.806062396084,-0.0107094012201,0.0241339217601,-0.00390624994111,-0.00457885714795,0.00111211345717,0.999981269066
2020/10/23/20:08:06.111485,612,1603480086,77858908,map,0.81245357147,-0.0104512509701,0.0242384064988,-0.00412698794647,-0.00433822168839,0.00109183009925,0.999981477684
2020/10/23/20:08:06.144861,613,1603480086,111347908,map,0.818633337021,-0.0101613220575,0.0242596222233,-0.0040596406297,-0.00368239818197,0.00110539373212,0.999984368561
2020/10/23/20:08:06.177988,614,1603480086,144714908,map,0.825198712848,-0.0100453545152,0.0243331182056,-0.00399861807707,-0.00333410638659,0.00149504990584,0.999985329699
2020/10/23/20:08:06.211432,615,1603480086,177674908,map,0.831321441148,-0.0100949816406,0.0244584375755,-0.00389287565471,-0.00345913755386,0.00178990206385,0.999984837954
2020/10/23/20:08:06.244451,616,1603480086,211343908,map,0.836894601924,-0.0100473062694,0.0245331313712,-0.00384473037993,-0.00378221046174,0.00212135588156,0.99998320625
2020/10/23/20:08:06.277759,617,1603480086,244533908,map,0.843111500497,-0.0100656974312,0.0246208923054,-0.00395176152308,-0.00365396250629,0.00240450638956,0.999982625093
2020/10/23/20:08:06.311106,618,1603480086,277870908,map,0.849363181099,-0.0101104459169,0.0250801946363,-0.00396869322668,-0.00362735792283,0.00238896295641,0.999982692153
2020/10/23/20:08:06.344324,619,1603480086,311277908,map,0.854921162859,-0.0100464950503,0.0251449169291,-0.00401906182439,-0.00435707229663,0.00210372161283,0.999980218514
2020/10/23/20:08:06.377944,620,1603480086,344708908,map,0.861707751921,-0.00985999673601,0.0254711407029,-0.00409072174887,-0.00378614806544,0.00159160211914,0.999983198799
2020/10/23/20:08:06.411041,621,1603480086,377816908,map,0.868028296942,-0.00980966627591,0.0255720344731,-0.00433650386392,-0.00380185834148,0.00164681861742,0.999982014136
2020/10/23/20:08:06.444525,622,1603480086,411296908,map,0.874302421967,-0.00944456204786,0.0256545766595,-0.00468819917803,-0.00352527576275,0.00120843447229,0.999982066292
2020/10/23/20:08:06.478134,623,1603480086,444576908,map,0.881350567954,-0.00903464078874,0.0256636109915,-0.00495100118103,-0.00312175580713,0.00126859185745,0.999982066291
2020/10/23/20:08:06.511462,624,1603480086,477859908,map,0.88749614806,-0.008904553205,0.0257194305535,-0.00513131074427,-0.0027158930691,0.00151976313216,0.999981991785
2020/10/23/20:08:06.544950,625,1603480086,511337908,map,0.893841815441,-0.00868236347994,0.025749702142,-0.00527592383641,-0.00286280251597,0.00135931747173,0.999981060443
2020/10/23/20:08:06.578342,626,1603480086,544711908,map,0.899692147931,-0.00857487112283,0.0258593661868,-0.00516459857959,-0.00278095365456,0.00143918779189,0.999981760812
2020/10/23/20:08:06.611193,627,1603480086,577866908,map,0.906034631603,-0.00848918855184,0.0259917682564,-0.00504048412664,-0.00310740300824,0.00177737061615,0.999980889077
2020/10/23/20:08:06.644537,628,1603480086,611356908,map,0.911707366802,-0.00842128798376,0.0261165968008,-0.00490716572623,-0.00323659023377,0.00194930660613,0.999980822022
2020/10/23/20:08:06.677824,629,1603480086,644640908,map,0.917891464526,-0.00837197065373,0.0262673190866,-0.00484451515383,-0.00357146936261,0.00218366018215,0.999979503244
2020/10/23/20:08:06.711421,630,1603480086,677853908,map,0.923751880315,-0.00829671531896,0.0264560009677,-0.00486599897551,-0.00382530278604,0.00227063922576,0.999978266419
2020/10/23/20:08:06.778232,631,1603480086,744622908,map,0.934773548335,-0.00805503070373,0.0267027827618,-0.00472776265664,-0.00430373614517,0.003109799697,0.999974727311
2020/10/23/20:08:06.811257,632,1603480086,777792908,map,0.940750419196,-0.00768459573403,0.0270373212348,-0.00475761104379,-0.00444677887731,0.00347632586099,0.999972752855
2020/10/23/20:08:06.844662,633,1603480086,811096908,map,0.947354699868,-0.00766811102664,0.0273056401379,-0.0046563063268,-0.00512985869593,0.00399488943626,0.999968021598
2020/10/23/20:08:06.882287,634,1603480086,844763908,map,0.953259428242,-0.00736030861725,0.0274560546632,-0.0049268641282,-0.00543315762969,0.00398929096872,0.999965145575
2020/10/23/20:08:06.911313,635,1603480086,878007908,map,0.959763538428,-0.00654391080153,0.027610104107,-0.00522483737415,-0.00571909491338,0.00415577267313,0.999961360544
2020/10/23/20:08:06.947342,636,1603480086,911211908,map,0.966729846595,-0.00615959107891,0.027716815249,-0.00547141949836,-0.00515593537577,0.00436732029702,0.999962202492
2020/10/23/20:08:06.978035,637,1603480086,944651908,map,0.975109716458,-0.00601122960441,0.028140349786,-0.00553505075775,-0.00427768937995,0.00437413900837,0.999965965168
2020/10/23/20:08:07.011830,638,1603480086,978099908,map,0.982104615652,-0.00588953301305,0.0284973090394,-0.00549723161041,-0.00454783579051,0.00444845389297,0.999964653821
2020/10/23/20:08:07.044728,639,1603480087,11184908,map,0.989320222328,-0.00548188790641,0.0287960313955,-0.00539876591066,-0.00403016963163,0.00419325306922,0.999968513348
2020/10/23/20:08:07.078677,640,1603480087,44663908,map,0.996567702591,-0.00523429199987,0.0287787496781,-0.00526178286765,-0.00403571199255,0.0045297795789,0.999967753363
2020/10/23/20:08:07.111167,641,1603480087,78021908,map,1.00480035948,-0.00513412460709,0.0290917139494,-0.00544000975526,-0.00312890764175,0.00476699787894,0.999968945499
2020/10/23/20:08:07.146523,642,1603480087,111076908,map,1.01224231489,-0.00499420747173,0.0296159125279,-0.00575804510988,-0.00305175774288,0.00427246084003,0.999969638424
2020/10/23/20:08:07.178720,643,1603480087,144617908,map,1.01914561991,-0.0045061258967,0.0299685987753,-0.00594646607551,-0.00309057363463,0.0036763234103,0.999970785844
2020/10/23/20:08:07.211409,644,1603480087,178073908,map,1.02610735129,-0.00396366715384,0.0301012575968,-0.00591757817813,-0.00315735288857,0.00365600093763,0.999970823099
2020/10/23/20:08:07.244349,645,1603480087,211216908,map,1.03354652611,-0.00345229908774,0.0301681799076,-0.00595898231921,-0.00295752964182,0.00418079693923,0.999969131766
2020/10/23/20:08:07.277718,646,1603480087,244647908,map,1.04067399086,-0.00327094450573,0.0304553387061,-0.00611936426663,-0.00268277100656,0.00479504874159,0.999966181242
2020/10/23/20:08:07.311140,647,1603480087,277904908,map,1.0482256063,-0.0032352347665,0.0305498144883,-0.00625662481982,-0.0028340300652,0.00479194027232,0.999964929499
2020/10/23/20:08:07.344483,648,1603480087,311237908,map,1.05555577608,-0.00311963021802,0.030578628477,-0.00635938280477,-0.00319021814113,0.00441988916663,0.999964922054
2020/10/23/20:08:07.378099,649,1603480087,344675908,map,1.06348504825,-0.00264371320638,0.0305703296802,-0.00637108795192,-0.00251654399452,0.00423040107387,0.99996758945
2020/10/23/20:08:07.411172,650,1603480087,378123908,map,1.07108062333,-0.00254708155956,0.0305836031887,-0.00648927465027,-0.00225747589449,0.0048919590888,0.999964430294
2020/10/23/20:08:07.444494,651,1603480087,411054908,map,1.07809338277,-0.00250063374653,0.0308572350371,-0.00689454153631,-0.00200953104585,0.00504048408628,0.99996150956
2020/10/23/20:08:07.477706,652,1603480087,444711908,map,1.08511710575,-0.00226817294907,0.0310687152598,-0.00691181058542,-0.00230967862078,0.00484912709683,0.999961688379
2020/10/23/20:08:07.511109,653,1603480087,477976908,map,1.09181557007,-0.00189125880584,0.0312447943134,-0.00689021787035,-0.00285237333085,0.00523907791728,0.999958469601
2020/10/23/20:08:07.544412,654,1603480087,511063908,map,1.09908245064,-0.00184646293509,0.0317263717819,-0.00697511951254,-0.00306637121468,0.00575545666704,0.999954408858
2020/10/23/20:08:07.577681,655,1603480087,544613908,map,1.1058360397,-0.00184159859958,0.0326639107772,-0.00683048578489,-0.00378811559382,0.00555252257344,0.999954081014
2020/10/23/20:08:07.611276,656,1603480087,578005908,map,1.11229252398,-0.00174311563419,0.0328107456604,-0.00654756737811,-0.00462741493911,0.00573470671369,0.999951413585
